[
  {
    "state": "Abia",
    "code": "AB",
    "geopolitical_zone": "South East",
    "capital": "Umuahia",
    "lgas": [
      { "name": "Aba North", "postal_code": "450211", "latitude": 5.1167, "longitude": 7.3667 },
      { "name": "Aba South", "postal_code": "450212", "latitude": 5.1067, "longitude": 7.3667 },
      { "name": "Arochukwu", "postal_code": "443101", "latitude": 5.3894, "longitude": 7.9119 },
      { "name": "Bende", "postal_code": "441101", "latitude": 5.5587, "longitude": 7.6338 },
      { "name": "Ikwuano", "postal_code": "440101", "latitude": 5.4333, "longitude": 7.5667 },
      { "name": "Isiala Ngwa North", "postal_code": "451101", "latitude": 5.2833, "longitude": 7.4667 },
      { "name": "Isiala Ngwa South", "postal_code": "451102", "latitude": 5.2500, "longitude": 7.4167 },
      { "name": "Isuikwuato", "postal_code": "441102", "latitude": 5.7833, "longitude": 7.3833 },
      { "name": "Obi Ngwa", "postal_code": "452101", "latitude": 5.2167, "longitude": 7.4667 },
      { "name": "Ohafia", "postal_code": "443102", "latitude": 5.6167, "longitude": 7.8333 },
      { "name": "Osisioma Ngwa", "postal_code": "450213", "latitude": 5.1667, "longitude": 7.3333 },
      { "name": "Ugwunagbo", "postal_code": "450214", "latitude": 5.0833, "longitude": 7.3667 },
      { "name": "Ukwa East", "postal_code": "453101", "latitude": 4.9833, "longitude": 7.5667 },
      { "name": "Ukwa West", "postal_code": "453102", "latitude": 4.9167, "longitude": 7.4667 },
      { "name": "Umuahia North", "postal_code": "440102", "latitude": 5.5333, "longitude": 7.4833 },
      { "name": "Umuahia South", "postal_code": "440103", "latitude": 5.5000, "longitude": 7.5167 },
      { "name": "Umu Nneochi", "postal_code": "441103", "latitude": 5.7667, "longitude": 7.3667 }
    ]
  },
  {
    "state": "Adamawa",
    "code": "AD",
    "geopolitical_zone": "North East",
    "capital": "Yola",
    "lgas": [
      { "name": "Demsa", "postal_code": "640101", "latitude": 9.4557, "longitude": 12.1521 },
      { "name": "Fufure", "postal_code": "640102", "latitude": 9.3333, "longitude": 12.5333 },
      { "name": "Ganye", "postal_code": "670101", "latitude": 8.4333, "longitude": 12.0333 },
      { "name": "Gayuk", "postal_code": "640103", "latitude": 9.9833, "longitude": 11.6833 },
      { "name": "Gombi", "postal_code": "650101", "latitude": 10.1667, "longitude": 12.7333 },
      { "name": "Grie", "postal_code": "650102", "latitude": 10.3000, "longitude": 12.9167 },
      { "name": "Hong", "postal_code": "640104", "latitude": 10.2333, "longitude": 12.9333 },
      { "name": "Jada", "postal_code": "670102", "latitude": 8.7667, "longitude": 12.1500 },
      { "name": "Lamurde", "postal_code": "640105", "latitude": 9.6167, "longitude": 11.7833 },
      { "name": "Madagali", "postal_code": "640106", "latitude": 10.8833, "longitude": 13.6333 },
      { "name": "Maiha", "postal_code": "650103", "latitude": 9.9833, "longitude": 13.2167 },
      { "name": "Mayo Belwa", "postal_code": "640107", "latitude": 9.0667, "longitude": 12.0667 },
      { "name": "Michika", "postal_code": "640108", "latitude": 10.6167, "longitude": 13.3833 },
      { "name": "Mubi North", "postal_code": "640109", "latitude": 10.2667, "longitude": 13.2667 },
      { "name": "Mubi South", "postal_code": "640110", "latitude": 10.2333, "longitude": 13.2833 },
      { "name": "Numan", "postal_code": "640111", "latitude": 9.4667, "longitude": 12.0333 },
      { "name": "Shelleng", "postal_code": "640112", "latitude": 9.8833, "longitude": 12.0000 },
      { "name": "Song", "postal_code": "640113", "latitude": 9.8333, "longitude": 12.6167 },
      { "name": "Toungo", "postal_code": "640114", "latitude": 8.1167, "longitude": 12.0500 },
      { "name": "Yola North", "postal_code": "640115", "latitude": 9.2500, "longitude": 12.4500 },
      { "name": "Yola South", "postal_code": "640116", "latitude": 9.2000, "longitude": 12.4833 }
    ]
  },
  {
    "state": "Akwa Ibom",
    "code": "AK",
    "geopolitical_zone": "South South",
    "capital": "Uyo",
    "lgas": [
      { "name": "Abak", "postal_code": "530101", "latitude": 4.9833, "longitude": 7.7833 },
      { "name": "Eastern Obolo", "postal_code": "530102", "latitude": 4.5333, "longitude": 7.9667 },
      { "name": "Eket", "postal_code": "520101", "latitude": 4.6500, "longitude": 7.9333 },
      { "name": "Esit Eket", "postal_code": "520102", "latitude": 4.6333, "longitude": 7.9667 },
      { "name": "Essien Udim", "postal_code": "530103", "latitude": 5.2500, "longitude": 7.6500 },
      { "name": "Etim Ekpo", "postal_code": "530104", "latitude": 5.0000, "longitude": 7.5667 },
      { "name": "Etinan", "postal_code": "520103", "latitude": 4.8500, "longitude": 7.8500 },
      { "name": "Ibeno", "postal_code": "520104", "latitude": 4.5667, "longitude": 7.9667 },
      { "name": "Ibesikpo Asutan", "postal_code": "520105", "latitude": 5.0667, "longitude": 7.9333 },
      { "name": "Ibiono-Ibom", "postal_code": "530105", "latitude": 5.2500, "longitude": 7.9167 },
      { "name": "Ika", "postal_code": "530106", "latitude": 5.0667, "longitude": 7.5167 },
      { "name": "Ikono", "postal_code": "530107", "latitude": 5.1667, "longitude": 7.9167 },
      { "name": "Ikot Abasi", "postal_code": "520106", "latitude": 4.5667, "longitude": 7.5667 },
      { "name": "Ikot Ekpene", "postal_code": "530108", "latitude": 5.1667, "longitude": 7.7167 },
      { "name": "Ini", "postal_code": "530109", "latitude": 5.4167, "longitude": 7.7500 },
      { "name": "Itu", "postal_code": "520107", "latitude": 5.2000, "longitude": 7.9833 },
      { "name": "Mbo", "postal_code": "520108", "latitude": 4.7333, "longitude": 8.2833 },
      { "name": "Mkpat-Enin", "postal_code": "520109", "latitude": 4.7333, "longitude": 7.7667 },
      { "name": "Nsit-Atai", "postal_code": "520110", "latitude": 4.8667, "longitude": 7.8500 },
      { "name": "Nsit-Ibom", "postal_code": "520111", "latitude": 5.1167, "longitude": 7.8667 },
      { "name": "Nsit-Ubium", "postal_code": "520112", "latitude": 5.0333, "longitude": 7.8333 },
      { "name": "Obot Akara", "postal_code": "530110", "latitude": 5.1667, "longitude": 7.5333 },
      { "name": "Okobo", "postal_code": "520113", "latitude": 4.7667, "longitude": 8.1167 },
      { "name": "Onna", "postal_code": "520114", "latitude": 4.6333, "longitude": 7.8833 },
      { "name": "Oron", "postal_code": "520115", "latitude": 4.8333, "longitude": 8.2333 },
      { "name": "Oruk Anam", "postal_code": "530111", "latitude": 4.9333, "longitude": 7.7833 },
      { "name": "Udung-Uko", "postal_code": "520116", "latitude": 4.7667, "longitude": 8.1667 },
      { "name": "Ukanafun", "postal_code": "530112", "latitude": 5.0000, "longitude": 7.6167 },
      { "name": "Uruan", "postal_code": "520117", "latitude": 5.0333, "longitude": 7.9000 },
      { "name": "Urue-Offong/Oruko", "postal_code": "520118", "latitude": 4.7333, "longitude": 8.1667 },
      { "name": "Uyo", "postal_code": "520119", "latitude": 5.0500, "longitude": 7.9333 }
    ]
  },
  {
    "state": "Anambra",
    "code": "AN",
    "geopolitical_zone": "South East",
    "capital": "Awka",
    "lgas": [
      { "name": "Aguata", "postal_code": "422101", "latitude": 6.0167, "longitude": 7.0833 },
      { "name": "Anambra East", "postal_code": "432101", "latitude": 6.3333, "longitude": 6.9667 },
      { "name": "Anambra West", "postal_code": "432102", "latitude": 6.3667, "longitude": 6.8667 },
      { "name": "Anaocha", "postal_code": "422102", "latitude": 6.1167, "longitude": 7.0667 },
      { "name": "Awka North", "postal_code": "420103", "latitude": 6.2667, "longitude": 7.1000 },
      { "name": "Awka South", "postal_code": "420104", "latitude": 6.2000, "longitude": 7.0667 },
      { "name": "Ayamelum", "postal_code": "432103", "latitude": 6.3667, "longitude": 7.0333 },
      { "name": "Dunukofia", "postal_code": "420105", "latitude": 6.3167, "longitude": 7.0167 },
      { "name": "Ekwusigo", "postal_code": "422103", "latitude": 6.0333, "longitude": 6.9167 },
      { "name": "Idemili North", "postal_code": "420106", "latitude": 6.1667, "longitude": 6.9333 },
      { "name": "Idemili South", "postal_code": "422104", "latitude": 6.1000, "longitude": 6.8667 },
      { "name": "Ihiala", "postal_code": "422105", "latitude": 5.8500, "longitude": 6.8667 },
      { "name": "Njikoka", "postal_code": "420107", "latitude": 6.2167, "longitude": 7.0333 },
      { "name": "Nnewi North", "postal_code": "435101", "latitude": 6.0167, "longitude": 6.9167 },
      { "name": "Nnewi South", "postal_code": "422106", "latitude": 5.9667, "longitude": 6.9667 },
      { "name": "Ogbaru", "postal_code": "432104", "latitude": 6.1667, "longitude": 6.8000 },
      { "name": "Onitsha North", "postal_code": "420108", "latitude": 6.1667, "longitude": 6.7833 },
      { "name": "Onitsha South", "postal_code": "420109", "latitude": 6.1500, "longitude": 6.8000 },
      { "name": "Orumba North", "postal_code": "422107", "latitude": 6.0667, "longitude": 7.2333 },
      { "name": "Orumba South", "postal_code": "422108", "latitude": 5.9667, "longitude": 7.2000 },
      { "name": "Oyi", "postal_code": "420110", "latitude": 6.2333, "longitude": 6.9167 }
    ]
  },
  {
    "state": "Bauchi",
    "code": "BA",
    "geopolitical_zone": "North East",
    "capital": "Bauchi",
    "lgas": [
      { "name": "Alkaleri", "postal_code": "740101", "latitude": 10.2667, "longitude": 10.3333 },
      { "name": "Bauchi", "postal_code": "740102", "latitude": 10.3158, "longitude": 9.8442 },
      { "name": "Bogoro", "postal_code": "741101", "latitude": 9.6667, "longitude": 9.6000 },
      { "name": "Damban", "postal_code": "751101", "latitude": 11.6833, "longitude": 10.7000 },
      { "name": "Darazo", "postal_code": "750101", "latitude": 10.9992, "longitude": 10.4106 },
      { "name": "Dass", "postal_code": "740103", "latitude": 10.0000, "longitude": 9.5000 },
      { "name": "Gamawa", "postal_code": "751102", "latitude": 12.1333, "longitude": 10.5333 },
      { "name": "Ganjuwa", "postal_code": "750102", "latitude": 10.9500, "longitude": 10.3667 },
      { "name": "Giade", "postal_code": "750103", "latitude": 11.5000, "longitude": 10.2000 },
      { "name": "Itas/Gadau", "postal_code": "751103", "latitude": 11.8667, "longitude": 9.9833 },
      { "name": "Jama'are", "postal_code": "751104", "latitude": 11.4333, "longitude": 9.9333 },
      { "name": "Katagum", "postal_code": "751105", "latitude": 11.6833, "longitude": 10.3500 },
      { "name": "Kirfi", "postal_code": "750104", "latitude": 10.4000, "longitude": 10.4000 },
      { "name": "Misau", "postal_code": "751106", "latitude": 11.3167, "longitude": 10.4667 },
      { "name": "Ningi", "postal_code": "752101", "latitude": 11.0833, "longitude": 9.5333 },
      { "name": "Shira", "postal_code": "750105", "latitude": 10.7833, "longitude": 10.5167 },
      { "name": "Tafawa Balewa", "postal_code": "741102", "latitude": 9.9000, "longitude": 9.7500 },
      { "name": "Toro", "postal_code": "770101", "latitude": 10.0667, "longitude": 9.0833 },
      { "name": "Warji", "postal_code": "751107", "latitude": 11.1833, "longitude": 9.7500 },
      { "name": "Zaki", "postal_code": "751108", "latitude": 11.1333, "longitude": 10.3667 }
    ]
  },
  {
    "state": "Bayelsa",
    "code": "BY",
    "geopolitical_zone": "South South",
    "capital": "Yenagoa",
    "lgas": [
      { "name": "Brass", "postal_code": "561101", "latitude": 4.3150, "longitude": 6.2410 },
      { "name": "Ekeremor", "postal_code": "562101", "latitude": 5.0579, "longitude": 5.7805 },
      { "name": "Kolokuma/Opokuma", "postal_code": "561102", "latitude": 5.0333, "longitude": 6.2833 },
      { "name": "Nembe", "postal_code": "562102", "latitude": 4.5361, "longitude": 6.4031 },
      { "name": "Ogbia", "postal_code": "562103", "latitude": 4.9667, "longitude": 6.2833 },
      { "name": "Sagbama", "postal_code": "561103", "latitude": 5.1667, "longitude": 6.2000 },
      { "name": "Southern Ijaw", "postal_code": "561104", "latitude": 4.8000, "longitude": 5.7833 },
      { "name": "Yenagoa", "postal_code": "561105", "latitude": 4.9267, "longitude": 6.2676 }
    ]
  },
  {
    "state": "Benue",
    "code": "BE",
    "geopolitical_zone": "North Central",
    "capital": "Makurdi",
    "lgas": [
      { "name": "Ado", "postal_code": "971101", "latitude": 7.2500, "longitude": 7.8500 },
      { "name": "Agatu", "postal_code": "971102", "latitude": 7.8333, "longitude": 7.8833 },
      { "name": "Apa", "postal_code": "971103", "latitude": 7.7667, "longitude": 7.7667 },
      { "name": "Buruku", "postal_code": "971104", "latitude": 7.4667, "longitude": 9.2000 },
      { "name": "Gboko", "postal_code": "971105", "latitude": 7.3333, "longitude": 9.0000 },
      { "name": "Guma", "postal_code": "970101", "latitude": 7.8333, "longitude": 8.6667 },
      { "name": "Gwer East", "postal_code": "970102", "latitude": 7.4167, "longitude": 8.5000 },
      { "name": "Gwer West", "postal_code": "970103", "latitude": 7.2500, "longitude": 8.4167 },
      { "name": "Katsina-Ala", "postal_code": "971106", "latitude": 7.1667, "longitude": 9.2833 },
      { "name": "Konshisha", "postal_code": "971107", "latitude": 7.0833, "longitude": 8.6667 },
      { "name": "Kwande", "postal_code": "972101", "latitude": 6.9167, "longitude": 9.5000 },
      { "name": "Logo", "postal_code": "972102", "latitude": 7.6667, "longitude": 9.3333 },
      { "name": "Makurdi", "postal_code": "970104", "latitude": 7.7333, "longitude": 8.5333 },
      { "name": "Obi", "postal_code": "971108", "latitude": 7.9167, "longitude": 8.3333 },
      { "name": "Ogbadibo", "postal_code": "973101", "latitude": 7.0833, "longitude": 7.8333 },
      { "name": "Ohimini", "postal_code": "973102", "latitude": 7.2500, "longitude": 7.9167 },
      { "name": "Oju", "postal_code": "973103", "latitude": 6.8333, "longitude": 8.4167 },
      { "name": "Okpokwu", "postal_code": "973104", "latitude": 7.0333, "longitude": 7.8000 },
      { "name": "Oturkpo", "postal_code": "973105", "latitude": 7.2000, "longitude": 8.1333 },
      { "name": "Tarka", "postal_code": "971109", "latitude": 7.5000, "longitude": 8.9833 },
      { "name": "Ukum", "postal_code": "971110", "latitude": 7.5000, "longitude": 9.6167 },
      { "name": "Ushongo", "postal_code": "971111", "latitude": 7.0833, "longitude": 9.0000 },
      { "name": "Vandeikya", "postal_code": "972103", "latitude": 6.7833, "longitude": 9.1667 }
    ]
  },
  {
    "state": "Borno",
    "code": "BO",
    "geopolitical_zone": "North East",
    "capital": "Maiduguri",
    "lgas": [
      { "name": "Abadam", "postal_code": "611101", "latitude": 13.1667, "longitude": 13.1667 },
      { "name": "Askira/Uba", "postal_code": "601101", "latitude": 10.6500, "longitude": 13.1500 },
      { "name": "Bama", "postal_code": "611102", "latitude": 11.5214, "longitude": 13.6895 },
      { "name": "Bayo", "postal_code": "601102", "latitude": 10.4667, "longitude": 11.6833 },
      { "name": "Biase", "postal_code": "611103", "latitude": 11.5000, "longitude": 13.5000 },
      { "name": "Chibok", "postal_code": "601103", "latitude": 10.8667, "longitude": 12.8500 },
      { "name": "Damboa", "postal_code": "601104", "latitude": 11.1500, "longitude": 12.7500 },
      { "name": "Dikwa", "postal_code": "611104", "latitude": 12.0333, "longitude": 13.9167 },
      { "name": "Gubio", "postal_code": "611105", "latitude": 12.5000, "longitude": 12.7833 },
      { "name": "Guzamala", "postal_code": "611106", "latitude": 12.6667, "longitude": 13.1667 },
      { "name": "Gwoza", "postal_code": "611107", "latitude": 11.0833, "longitude": 13.7000 },
      { "name": "Hawul", "postal_code": "601105", "latitude": 10.5000, "longitude": 12.3333 },
      { "name": "Jere", "postal_code": "600102", "latitude": 11.8833, "longitude": 13.1667 },
      { "name": "Kaga", "postal_code": "600103", "latitude": 11.5000, "longitude": 12.5000 },
      { "name": "Kala/Balge", "postal_code": "611108", "latitude": 12.2833, "longitude": 14.4667 },
      { "name": "Konduga", "postal_code": "600104", "latitude": 11.6500, "longitude": 13.4167 },
      { "name": "Kukawa", "postal_code": "611109", "latitude": 12.9167, "longitude": 13.5667 },
      { "name": "Kwaya Kusar", "postal_code": "601106", "latitude": 10.5000, "longitude": 11.8333 },
      { "name": "Mafa", "postal_code": "600105", "latitude": 11.9167, "longitude": 13.6000 },
      { "name": "Magumeri", "postal_code": "611110", "latitude": 12.1167, "longitude": 12.8333 },
      { "name": "Maiduguri", "postal_code": "600106", "latitude": 11.8333, "longitude": 13.1500 },
      { "name": "Marte", "postal_code": "611111", "latitude": 12.3667, "longitude": 13.8333 },
      { "name": "Mobbar", "postal_code": "611112", "latitude": 13.0000, "longitude": 12.8333 },
      { "name": "Monguno", "postal_code": "611113", "latitude": 12.6667, "longitude": 13.6000 },
      { "name": "Ngala", "postal_code": "611114", "latitude": 12.3333, "longitude": 14.2167 },
      { "name": "Nganzai", "postal_code": "611115", "latitude": 12.5000, "longitude": 13.1667 },
      { "name": "Shani", "postal_code": "601107", "latitude": 10.2167, "longitude": 12.0667 }
    ]
  },
  {
    "state": "Cross River",
    "code": "CR",
    "geopolitical_zone": "South South",
    "capital": "Calabar",
    "lgas": [
      { "name": "Abi", "postal_code": "540101", "latitude": 5.9167, "longitude": 8.6333 },
      { "name": "Akamkpa", "postal_code": "540102", "latitude": 5.3167, "longitude": 8.3500 },
      { "name": "Akpabuyo", "postal_code": "540103", "latitude": 5.0333, "longitude": 8.2833 },
      { "name": "Bakassi", "postal_code": "540104", "latitude": 4.5667, "longitude": 8.4833 },
      { "name": "Bekwarra", "postal_code": "541101", "latitude": 6.6333, "longitude": 8.9167 },
      { "name": "Biase", "postal_code": "540105", "latitude": 5.5167, "longitude": 8.0833 },
      { "name": "Boki", "postal_code": "540106", "latitude": 6.2833, "longitude": 8.9667 },
      { "name": "Calabar Municipal", "postal_code": "540107", "latitude": 4.9500, "longitude": 8.3333 },
      { "name": "Calabar South", "postal_code": "540108", "latitude": 4.9333, "longitude": 8.3167 },
      { "name": "Etung", "postal_code": "540109", "latitude": 5.8333, "longitude": 8.8333 },
      { "name": "Ikom", "postal_code": "540110", "latitude": 5.9667, "longitude": 8.7167 },
      { "name": "Obanliku", "postal_code": "541102", "latitude": 6.5000, "longitude": 9.1667 },
      { "name": "Obubra", "postal_code": "540111", "latitude": 6.0833, "longitude": 8.3333 },
      { "name": "Obudu", "postal_code": "541103", "latitude": 6.6667, "longitude": 9.1667 },
      { "name": "Odukpani", "postal_code": "540112", "latitude": 5.1333, "longitude": 8.3333 },
      { "name": "Ogoja", "postal_code": "541104", "latitude": 6.6500, "longitude": 8.8000 },
      { "name": "Yakuur", "postal_code": "540113", "latitude": 5.7500, "longitude": 8.5333 },
      { "name": "Yala", "postal_code": "541105", "latitude": 6.5833, "longitude": 8.5833 }
    ]
  },
  {
    "state": "Delta",
    "code": "DE",
    "geopolitical_zone": "South South",
    "capital": "Asaba",
    "lgas": [
      { "name": "Aniocha North", "postal_code": "322101", "latitude": 6.3333, "longitude": 6.4667 },
      { "name": "Aniocha South", "postal_code": "322102", "latitude": 6.1667, "longitude": 6.5833 },
      { "name": "Bomadi", "postal_code": "333101", "latitude": 5.1667, "longitude": 5.9333 },
      { "name": "Burutu", "postal_code": "333102", "latitude": 5.3500, "longitude": 5.5000 },
      { "name": "Ethiope East", "postal_code": "330105", "latitude": 5.7667, "longitude": 5.9667 },
      { "name": "Ethiope West", "postal_code": "330106", "latitude": 5.8333, "longitude": 5.7333 },
      { "name": "Ika North East", "postal_code": "321101", "latitude": 6.2833, "longitude": 6.2833 },
      { "name": "Ika South", "postal_code": "321102", "latitude": 6.2000, "longitude": 6.3167 },
      { "name": "Isoko North", "postal_code": "333103", "latitude": 5.5000, "longitude": 6.2833 },
      { "name": "Isoko South", "postal_code": "333104", "latitude": 5.4667, "longitude": 6.2000 },
      { "name": "Ndokwa East", "postal_code": "332101", "latitude": 5.5333, "longitude": 6.4667 },
      { "name": "Ndokwa West", "postal_code": "332102", "latitude": 5.7500, "longitude": 6.3667 },
      { "name": "Okpe", "postal_code": "330107", "latitude": 5.4667, "longitude": 5.9333 },
      { "name": "Oshimili North", "postal_code": "322103", "latitude": 6.3333, "longitude": 6.6000 },
      { "name": "Oshimili South", "postal_code": "320108", "latitude": 6.2000, "longitude": 6.7333 },
      { "name": "Patani", "postal_code": "333105", "latitude": 5.2333, "longitude": 6.1833 },
      { "name": "Sapele", "postal_code": "330108", "latitude": 5.9000, "longitude": 5.6833 },
      { "name": "Udu", "postal_code": "330109", "latitude": 5.4667, "longitude": 5.7833 },
      { "name": "Ughelli North", "postal_code": "330110", "latitude": 5.5000, "longitude": 6.0000 },
      { "name": "Ughelli South", "postal_code": "330111", "latitude": 5.3833, "longitude": 5.9667 },
      { "name": "Ukwuani", "postal_code": "332103", "latitude": 5.7500, "longitude": 6.3333 },
      { "name": "Uvwie", "postal_code": "330112", "latitude": 5.5667, "longitude": 5.7833 },
      { "name": "Warri North", "postal_code": "333106", "latitude": 5.7500, "longitude": 5.5167 },
      { "name": "Warri South", "postal_code": "332104", "latitude": 5.5167, "longitude": 5.7500 },
      { "name": "Warri South West", "postal_code": "333107", "latitude": 5.4333, "longitude": 5.4667 }
    ]
  },
  {
    "state": "Ebonyi",
    "code": "EB",
    "geopolitical_zone": "South East",
    "capital": "Abakaliki",
    "lgas": [
      { "name": "Abakaliki", "postal_code": "840101", "latitude": 6.3333, "longitude": 8.1000 },
      { "name": "Afikpo North", "postal_code": "840102", "latitude": 5.8833, "longitude": 7.9333 },
      { "name": "Afikpo South", "postal_code": "840103", "latitude": 5.8667, "longitude": 7.9667 },
      { "name": "Ebonyi", "postal_code": "840104", "latitude": 6.2500, "longitude": 8.0833 },
      { "name": "Ezza North", "postal_code": "840105", "latitude": 6.4333, "longitude": 8.0833 },
      { "name": "Ezza South", "postal_code": "840106", "latitude": 6.3333, "longitude": 8.0333 },
      { "name": "Ikwo", "postal_code": "840107", "latitude": 6.1000, "longitude": 8.2000 },
      { "name": "Ishielu", "postal_code": "840108", "latitude": 6.4167, "longitude": 7.8333 },
      { "name": "Ivo", "postal_code": "840109", "latitude": 5.9000, "longitude": 7.5833 },
      { "name": "Izzi", "postal_code": "840110", "latitude": 6.4500, "longitude": 8.0333 },
      { "name": "Ohaozara", "postal_code": "840111", "latitude": 6.0833, "longitude": 7.9167 },
      { "name": "Ohaukwu", "postal_code": "840112", "latitude": 6.5333, "longitude": 8.0333 },
      { "name": "Onicha", "postal_code": "840113", "latitude": 6.1167, "longitude": 7.8333 }
    ]
  },
  {
    "state": "Edo",
    "code": "ED",
    "geopolitical_zone": "South South",
    "capital": "Benin City",
    "lgas": [
      { "name": "Akoko-Edo", "postal_code": "313101", "latitude": 7.5000, "longitude": 6.2500 },
      { "name": "Egor", "postal_code": "300102", "latitude": 6.3333, "longitude": 5.6333 },
      { "name": "Esan Central", "postal_code": "310104", "latitude": 6.7500, "longitude": 6.3333 },
      { "name": "Esan North-East", "postal_code": "310105", "latitude": 6.8333, "longitude": 6.4167 },
      { "name": "Esan South-East", "postal_code": "310106", "latitude": 6.5833, "longitude": 6.2500 },
      { "name": "Esan West", "postal_code": "310107", "latitude": 6.6667, "longitude": 6.1667 },
      { "name": "Etsako Central", "postal_code": "312101", "latitude": 6.8333, "longitude": 6.5000 },
      { "name": "Etsako East", "postal_code": "312102", "latitude": 7.0000, "longitude": 6.3333 },
      { "name": "Etsako West", "postal_code": "312103", "latitude": 7.0833, "longitude": 6.2500 },
      { "name": "Igueben", "postal_code": "310108", "latitude": 6.6000, "longitude": 6.2333 },
      { "name": "Ikpoba-Okha", "postal_code": "300103", "latitude": 6.3667, "longitude": 5.6667 },
      { "name": "Oredo", "postal_code": "300104", "latitude": 6.3333, "longitude": 5.6333 },
      { "name": "Orhionmwon", "postal_code": "301101", "latitude": 6.2500, "longitude": 5.9167 },
      { "name": "Ovia North-East", "postal_code": "300105", "latitude": 6.5000, "longitude": 5.8333 },
      { "name": "Ovia South-West", "postal_code": "300106", "latitude": 6.3333, "longitude": 5.5000 },
      { "name": "Owan East", "postal_code": "313102", "latitude": 6.9167, "longitude": 6.0833 },
      { "name": "Owan West", "postal_code": "313103", "latitude": 6.8333, "longitude": 6.0000 },
      { "name": "Uhunmwonde", "postal_code": "301102", "latitude": 6.5000, "longitude": 5.9167 }
    ]
  },
  {
    "state": "Ekiti",
    "code": "EK",
    "geopolitical_zone": "South West",
    "capital": "Ado-Ekiti",
    "lgas": [
      { "name": "Ado Ekiti", "postal_code": "360101", "latitude": 7.6167, "longitude": 5.2167 },
      { "name": "Efon", "postal_code": "360102", "latitude": 7.6667, "longitude": 4.9167 },
      { "name": "Ekiti East", "postal_code": "360103", "latitude": 7.7500, "longitude": 5.7167 },
      { "name": "Ekiti South-West", "postal_code": "360104", "latitude": 7.5833, "longitude": 5.0333 },
      { "name": "Ekiti West", "postal_code": "360105", "latitude": 7.6667, "longitude": 5.0833 },
      { "name": "Emure", "postal_code": "360106", "latitude": 7.4500, "longitude": 5.4667 },
      { "name": "Gbonyin", "postal_code": "360107", "latitude": 7.8333, "longitude": 5.4167 },
      { "name": "Ido Osi", "postal_code": "360108", "latitude": 7.8333, "longitude": 5.3333 },
      { "name": "Ijero", "postal_code": "360109", "latitude": 7.8167, "longitude": 5.0833 },
      { "name": "Ikere", "postal_code": "360110", "latitude": 7.5000, "longitude": 5.2333 },
      { "name": "Ikole", "postal_code": "360111", "latitude": 7.9167, "longitude": 5.6667 },
      { "name": "Ilejemeje", "postal_code": "360112", "latitude": 7.8333, "longitude": 5.2500 },
      { "name": "Irepodun/Ifelodun", "postal_code": "360113", "latitude": 7.5000, "longitude": 5.0833 },
      { "name": "Ise/Orun", "postal_code": "360114", "latitude": 7.4667, "longitude": 5.4333 },
      { "name": "Moba", "postal_code": "360115", "latitude": 7.9167, "longitude": 5.1667 },
      { "name": "Oye", "postal_code": "360116", "latitude": 7.8333, "longitude": 5.3667 }
    ]
  },
  {
    "state": "Enugu",
    "code": "EN",
    "geopolitical_zone": "South East",
    "capital": "Enugu",
    "lgas": [
      { "name": "Aninri", "postal_code": "410101", "latitude": 6.2500, "longitude": 7.5000 },
      { "name": "Awgu", "postal_code": "410102", "latitude": 6.0833, "longitude": 7.4833 },
      { "name": "Enugu East", "postal_code": "400105", "latitude": 6.4333, "longitude": 7.5500 },
      { "name": "Enugu North", "postal_code": "400106", "latitude": 6.4500, "longitude": 7.5167 },
      { "name": "Enugu South", "postal_code": "400107", "latitude": 6.4167, "longitude": 7.5000 },
      { "name": "Ezeagu", "postal_code": "410103", "latitude": 6.5000, "longitude": 7.2500 },
      { "name": "Igbo Etiti", "postal_code": "410104", "latitude": 6.5833, "longitude": 7.4167 },
      { "name": "Igbo Eze North", "postal_code": "413101", "latitude": 6.9167, "longitude": 7.4667 },
      { "name": "Igbo Eze South", "postal_code": "413102", "latitude": 6.8333, "longitude": 7.4167 },
      { "name": "Isi Uzo", "postal_code": "410105", "latitude": 6.6667, "longitude": 7.5833 },
      { "name": "Nkanu East", "postal_code": "410106", "latitude": 6.3333, "longitude": 7.6667 },
      { "name": "Nkanu West", "postal_code": "410107", "latitude": 6.3333, "longitude": 7.5833 },
      { "name": "Nsukka", "postal_code": "410108", "latitude": 6.8667, "longitude": 7.3833 },
      { "name": "Oji River", "postal_code": "410109", "latitude": 6.2500, "longitude": 7.2833 },
      { "name": "Udenu", "postal_code": "413103", "latitude": 6.7833, "longitude": 7.4667 },
      { "name": "Udi", "postal_code": "410110", "latitude": 6.3333, "longitude": 7.4167 },
      { "name": "Uzo Uwani", "postal_code": "410111", "latitude": 6.8333, "longitude": 7.1667 }
    ]
  },
  {
    "state": "Federal Capital Territory",
    "code": "FC",
    "geopolitical_zone": "North Central",
    "capital": "Abuja",
    "lgas": [
      { "name": "Abaji", "postal_code": "901101", "latitude": 8.4736, "longitude": 6.9445 },
      { "name": "Bwari", "postal_code": "901102", "latitude": 9.2833, "longitude": 7.3667 },
      { "name": "Gwagwalada", "postal_code": "901103", "latitude": 8.9430, "longitude": 7.0817 },
      { "name": "Kuje", "postal_code": "901104", "latitude": 8.8833, "longitude": 7.2333 },
      { "name": "Kwali", "postal_code": "901105", "latitude": 8.8833, "longitude": 7.0333 },
      { "name": "Municipal Area Council", "postal_code": "900106", "latitude": 9.0765, "longitude": 7.3986 }
    ]
  },
  {
    "state": "Gombe",
    "code": "GO",
    "geopolitical_zone": "North East",
    "capital": "Gombe",
    "lgas": [
      { "name": "Akko", "postal_code": "760101", "latitude": 10.2833, "longitude": 10.9667 },
      { "name": "Balanga", "postal_code": "761101", "latitude": 9.9667, "longitude": 11.6833 },
      { "name": "Billiri", "postal_code": "761102", "latitude": 9.8667, "longitude": 11.2167 },
      { "name": "Dukku", "postal_code": "760102", "latitude": 10.8333, "longitude": 10.7667 },
      { "name": "Funakaye", "postal_code": "760103", "latitude": 10.7667, "longitude": 11.5167 },
      { "name": "Gombe", "postal_code": "760104", "latitude": 10.2894, "longitude": 11.1717 },
      { "name": "Kaltungo", "postal_code": "761103", "latitude": 9.8167, "longitude": 11.3167 },
      { "name": "Kwami", "postal_code": "760105", "latitude": 10.4667, "longitude": 11.2333 },
      { "name": "Nafada", "postal_code": "760106", "latitude": 11.1000, "longitude": 11.3333 },
      { "name": "Shongom", "postal_code": "761104", "latitude": 9.9333, "longitude": 11.5333 },
      { "name": "Yamaltu/Deba", "postal_code": "760107", "latitude": 10.2167, "longitude": 11.3833 }
    ]
  },
  {
    "state": "Imo",
    "code": "IM",
    "geopolitical_zone": "South East",
    "capital": "Owerri",
    "lgas": [
      { "name": "Aboh Mbaise", "postal_code": "462101", "latitude": 5.4667, "longitude": 7.2333 },
      { "name": "Ahiazu Mbaise", "postal_code": "462102", "latitude": 5.5333, "longitude": 7.2667 },
      { "name": "Ehime Mbano", "postal_code": "463101", "latitude": 5.7167, "longitude": 7.2333 },
      { "name": "Ezinihitte Mbaise", "postal_code": "462103", "latitude": 5.5000, "longitude": 7.3667 },
      { "name": "Ideato North", "postal_code": "475101", "latitude": 5.8333, "longitude": 7.0833 },
      { "name": "Ideato South", "postal_code": "475102", "latitude": 5.7667, "longitude": 7.1333 },
      { "name": "Ihitte/Uboma", "postal_code": "463102", "latitude": 5.6333, "longitude": 7.3667 },
      { "name": "Ikeduru", "postal_code": "463103", "latitude": 5.5333, "longitude": 7.1000 },
      { "name": "Isiala Mbano", "postal_code": "463104", "latitude": 5.6333, "longitude": 7.2167 },
      { "name": "Isu", "postal_code": "475103", "latitude": 5.7000, "longitude": 7.0333 },
      { "name": "Mbaitoli", "postal_code": "463105", "latitude": 5.5833, "longitude": 7.0333 },
      { "name": "Ngor Okpala", "postal_code": "464101", "latitude": 5.4167, "longitude": 7.3333 },
      { "name": "Njaba", "postal_code": "475104", "latitude": 5.7333, "longitude": 7.0000 },
      { "name": "Nkwerre", "postal_code": "475105", "latitude": 5.7500, "longitude": 7.1000 },
      { "name": "Nwangele", "postal_code": "475106", "latitude": 5.7167, "longitude": 7.1833 },
      { "name": "Obowo", "postal_code": "463106", "latitude": 5.5833, "longitude": 7.3500 },
      { "name": "Oguta", "postal_code": "464102", "latitude": 5.7167, "longitude": 6.8167 },
      { "name": "Ohaji/Egbema", "postal_code": "464103", "latitude": 5.5000, "longitude": 6.8333 },
      { "name": "Okigwe", "postal_code": "463107", "latitude": 5.8333, "longitude": 7.3500 },
      { "name": "Orlu", "postal_code": "475107", "latitude": 5.7833, "longitude": 7.0333 },
      { "name": "Orsu", "postal_code": "475108", "latitude": 5.8333, "longitude": 6.9333 },
      { "name": "Oru East", "postal_code": "475109", "latitude": 5.7333, "longitude": 6.8333 },
      { "name": "Oru West", "postal_code": "475110", "latitude": 5.6833, "longitude": 6.7833 },
      { "name": "Owerri Municipal", "postal_code": "460111", "latitude": 5.4833, "longitude": 7.0333 },
      { "name": "Owerri North", "postal_code": "460112", "latitude": 5.5333, "longitude": 7.0333 },
      { "name": "Owerri West", "postal_code": "460113", "latitude": 5.4833, "longitude": 6.9333 },
      { "name": "Unuimo", "postal_code": "475111", "latitude": 5.7167, "longitude": 7.2500 }
    ]
  },
  {
    "state": "Jigawa",
    "code": "JI",
    "geopolitical_zone": "North West",
    "capital": "Dutse",
    "lgas": [
      { "name": "Auyo", "postal_code": "732101", "latitude": 12.3333, "longitude": 9.9333 },
      { "name": "Babura", "postal_code": "732102", "latitude": 12.7667, "longitude": 9.0000 },
      { "name": "Biriniwa", "postal_code": "732103", "latitude": 12.7833, "longitude": 10.2333 },
      { "name": "Birnin Kudu", "postal_code": "720101", "latitude": 11.4500, "longitude": 9.4833 },
      { "name": "Buji", "postal_code": "720102", "latitude": 11.5167, "longitude": 9.7667 },
      { "name": "Dutse", "postal_code": "720103", "latitude": 11.7011, "longitude": 9.3458 },
      { "name": "Gagarawa", "postal_code": "732104", "latitude": 12.4167, "longitude": 9.5333 },
      { "name": "Garki", "postal_code": "720104", "latitude": 12.4333, "longitude": 9.1667 },
      { "name": "Gumel", "postal_code": "732105", "latitude": 12.6333, "longitude": 9.4000 },
      { "name": "Guri", "postal_code": "732106", "latitude": 12.7333, "longitude": 10.4167 },
      { "name": "Gwaram", "postal_code": "720105", "latitude": 11.2833, "longitude": 9.8833 },
      { "name": "Gwiwa", "postal_code": "732107", "latitude": 12.6667, "longitude": 8.3333 },
      { "name": "Hadejia", "postal_code": "732108", "latitude": 12.4500, "longitude": 10.0500 },
      { "name": "Jahun", "postal_code": "720106", "latitude": 12.0833, "longitude": 9.6333 },
      { "name": "Kafin Hausa", "postal_code": "732109", "latitude": 12.2333, "longitude": 9.9167 },
      { "name": "Kaugama", "postal_code": "732110", "latitude": 12.4667, "longitude": 9.7500 },
      { "name": "Kazaure", "postal_code": "732111", "latitude": 12.6333, "longitude": 8.4167 },
      { "name": "Kiri Kasama", "postal_code": "732112", "latitude": 12.6000, "longitude": 10.2500 },
      { "name": "Kiyawa", "postal_code": "720107", "latitude": 11.5333, "longitude": 9.6000 },
      { "name": "Maigatari", "postal_code": "732113", "latitude": 12.8333, "longitude": 9.4500 },
      { "name": "Malam Madori", "postal_code": "732114", "latitude": 12.5667, "longitude": 9.8833 },
      { "name": "Miga", "postal_code": "720108", "latitude": 12.2333, "longitude": 9.7167 },
      { "name": "Ringim", "postal_code": "720109", "latitude": 12.1500, "longitude": 9.1667 },
      { "name": "Roni", "postal_code": "720110", "latitude": 12.6667, "longitude": 8.2667 },
      { "name": "Sule Tankarkar", "postal_code": "732115", "latitude": 12.6667, "longitude": 9.2333 },
      { "name": "Taura", "postal_code": "720111", "latitude": 12.2167, "longitude": 9.2833 },
      { "name": "Yankwashi", "postal_code": "720112", "latitude": 12.7500, "longitude": 8.5333 }
    ]
  },
  {
    "state": "Kaduna",
    "code": "KD",
    "geopolitical_zone": "North West",
    "capital": "Kaduna",
    "lgas": [
      { "name": "Birnin Gwari", "postal_code": "800101", "latitude": 10.6667, "longitude": 6.5333 },
      { "name": "Chikun", "postal_code": "800102", "latitude": 10.4167, "longitude": 7.3667 },
      { "name": "Giwa", "postal_code": "810101", "latitude": 11.3167, "longitude": 7.4333 },
      { "name": "Igabi", "postal_code": "800103", "latitude": 10.8333, "longitude": 7.8333 },
      { "name": "Ikara", "postal_code": "810102", "latitude": 11.1833, "longitude": 8.2333 },
      { "name": "Jaba", "postal_code": "801101", "latitude": 9.4667, "longitude": 8.0833 },
      { "name": "Jema'a", "postal_code": "801102", "latitude": 9.4667, "longitude": 8.4000 },
      { "name": "Kachia", "postal_code": "800104", "latitude": 9.8667, "longitude": 7.9500 },
      { "name": "Kaduna North", "postal_code": "800105", "latitude": 10.5167, "longitude": 7.4333 },
      { "name": "Kaduna South", "postal_code": "800106", "latitude": 10.5000, "longitude": 7.4167 },
      { "name": "Kagarko", "postal_code": "800107", "latitude": 9.5000, "longitude": 7.6833 },
      { "name": "Kajuru", "postal_code": "800108", "latitude": 10.3333, "longitude": 7.6833 },
      { "name": "Kaura", "postal_code": "801103", "latitude": 9.6667, "longitude": 8.4000 },
      { "name": "Kauru", "postal_code": "801104", "latitude": 10.5833, "longitude": 8.1500 },
      { "name": "Kubau", "postal_code": "810103", "latitude": 11.2833, "longitude": 8.3333 },
      { "name": "Kudan", "postal_code": "810104", "latitude": 11.4833, "longitude": 7.6833 },
      { "name": "Lere", "postal_code": "810105", "latitude": 10.3833, "longitude": 8.5833 },
      { "name": "Makarfi", "postal_code": "810106", "latitude": 11.3833, "longitude": 7.8833 },
      { "name": "Sabon Gari", "postal_code": "810107", "latitude": 11.1667, "longitude": 7.7333 },
      { "name": "Sanga", "postal_code": "801105", "latitude": 9.2500, "longitude": 8.3667 },
      { "name": "Soba", "postal_code": "810108", "latitude": 10.9833, "longitude": 8.0667 },
      { "name": "Zangon Kataf", "postal_code": "801106", "latitude": 9.7833, "longitude": 8.3667 },
      { "name": "Zaria", "postal_code": "810109", "latitude": 11.0667, "longitude": 7.7000 }
    ]
  },
  {
    "state": "Kano",
    "code": "KN",
    "geopolitical_zone": "North West",
    "capital": "Kano",
    "lgas": [
      { "name": "Ajingi", "postal_code": "710101", "latitude": 11.9667, "longitude": 9.0500 },
      { "name": "Albasu", "postal_code": "710102", "latitude": 11.6667, "longitude": 9.1333 },
      { "name": "Bagwai", "postal_code": "710103", "latitude": 12.1667, "longitude": 8.1333 },
      { "name": "Bebeji", "postal_code": "710104", "latitude": 11.6667, "longitude": 8.2667 },
      { "name": "Bichi", "postal_code": "710105", "latitude": 12.2333, "longitude": 8.2500 },
      { "name": "Bunkure", "postal_code": "710106", "latitude": 11.7000, "longitude": 8.5667 },
      { "name": "Dala", "postal_code": "700107", "latitude": 11.9833, "longitude": 8.5167 },
      { "name": "Dambatta", "postal_code": "710107", "latitude": 12.4333, "longitude": 8.5167 },
      { "name": "Dawakin Kudu", "postal_code": "710108", "latitude": 11.8333, "longitude": 8.6000 },
      { "name": "Dawakin Tofa", "postal_code": "710109", "latitude": 12.1000, "longitude": 8.3333 },
      { "name": "Doguwa", "postal_code": "710110", "latitude": 10.9167, "longitude": 8.7667 },
      { "name": "Fagge", "postal_code": "700108", "latitude": 12.0000, "longitude": 8.5333 },
      { "name": "Gabasawa", "postal_code": "710111", "latitude": 11.8667, "longitude": 8.8667 },
      { "name": "Garko", "postal_code": "710112", "latitude": 11.6500, "longitude": 8.8000 },
      { "name": "Garun Mallam", "postal_code": "710113", "latitude": 11.6833, "longitude": 8.3833 },
      { "name": "Gaya", "postal_code": "710114", "latitude": 11.8667, "longitude": 9.0167 },
      { "name": "Gezawa", "postal_code": "710115", "latitude": 12.1000, "longitude": 8.7500 },
      { "name": "Gwale", "postal_code": "700109", "latitude": 12.0500, "longitude": 8.5167 },
      { "name": "Gwarzo", "postal_code": "710116", "latitude": 11.9167, "longitude": 7.9333 },
      { "name": "Kabo", "postal_code": "710117", "latitude": 11.8500, "longitude": 8.2167 },
      { "name": "Kano Municipal", "postal_code": "700110", "latitude": 12.0000, "longitude": 8.5167 },
      { "name": "Karaye", "postal_code": "710118", "latitude": 11.7833, "longitude": 8.0167 },
      { "name": "Kibiya", "postal_code": "710119", "latitude": 11.5333, "longitude": 8.6667 },
      { "name": "Kiru", "postal_code": "710120", "latitude": 11.7000, "longitude": 8.2500 },
      { "name": "Kumbotso", "postal_code": "700111", "latitude": 11.8833, "longitude": 8.6000 },
      { "name": "Kunchi", "postal_code": "710121", "latitude": 12.5000, "longitude": 8.2833 },
      { "name": "Kura", "postal_code": "710122", "latitude": 11.7667, "longitude": 8.4333 },
      { "name": "Madobi", "postal_code": "710123", "latitude": 11.7833, "longitude": 8.3833 },
      { "name": "Makoda", "postal_code": "710124", "latitude": 12.5667, "longitude": 8.4167 },
      { "name": "Minjibir", "postal_code": "710125", "latitude": 12.1833, "longitude": 8.3333 },
      { "name": "Nasarawa", "postal_code": "700112", "latitude": 11.9833, "longitude": 8.5667 },
      { "name": "Rano", "postal_code": "710126", "latitude": 11.5667, "longitude": 8.5833 },
      { "name": "Rimin Gado", "postal_code": "710127", "latitude": 11.9667, "longitude": 8.2667 },
      { "name": "Rogo", "postal_code": "710128", "latitude": 11.5333, "longitude": 7.8333 },
      { "name": "Shanono", "postal_code": "710129", "latitude": 12.0500, "longitude": 7.9833 },
      { "name": "Sumaila", "postal_code": "710130", "latitude": 11.5167, "longitude": 8.9667 },
      { "name": "Takai", "postal_code": "710131", "latitude": 11.5833, "longitude": 9.1167 },
      { "name": "Tarauni", "postal_code": "700113", "latitude": 12.0000, "longitude": 8.5500 },
      { "name": "Tofa", "postal_code": "710132", "latitude": 12.0667, "longitude": 8.2833 },
      { "name": "Tsanyawa", "postal_code": "710133", "latitude": 12.3000, "longitude": 8.0000 },
      { "name": "Tudun Wada", "postal_code": "710134", "latitude": 11.2333, "longitude": 8.4000 },
      { "name": "Ungogo", "postal_code": "700114", "latitude": 12.1000, "longitude": 8.4833 },
      { "name": "Warawa", "postal_code": "710135", "latitude": 11.8667, "longitude": 8.7000 },
      { "name": "Wudil", "postal_code": "710136", "latitude": 11.8000, "longitude": 8.8500 }
    ]
  },
  {
    "state": "Katsina",
    "code": "KT",
    "geopolitical_zone": "North West",
    "capital": "Katsina",
    "lgas": [
      { "name": "Bakori", "postal_code": "830101", "latitude": 11.5667, "longitude": 7.4333 },
      { "name": "Batagarawa", "postal_code": "820101", "latitude": 12.9167, "longitude": 7.6167 },
      { "name": "Batsari", "postal_code": "830102", "latitude": 12.7500, "longitude": 7.2500 },
      { "name": "Baure", "postal_code": "830103", "latitude": 12.8333, "longitude": 8.7500 },
      { "name": "Bindawa", "postal_code": "830104", "latitude": 12.6667, "longitude": 7.8167 },
      { "name": "Charanchi", "postal_code": "830105", "latitude": 12.6833, "longitude": 7.7333 },
      { "name": "Dandume", "postal_code": "830106", "latitude": 11.4667, "longitude": 7.1333 },
      { "name": "Danja", "postal_code": "830107", "latitude": 11.3833, "longitude": 7.5667 },
      { "name": "Dan Musa", "postal_code": "830108", "latitude": 12.2667, "longitude": 7.3333 },
      { "name": "Daura", "postal_code": "820102", "latitude": 13.0333, "longitude": 8.3167 },
      { "name": "Dutsi", "postal_code": "820103", "latitude": 12.8333, "longitude": 8.1500 },
      { "name": "Dutsin-Ma", "postal_code": "830109", "latitude": 12.4500, "longitude": 7.5000 },
      { "name": "Faskari", "postal_code": "830110", "latitude": 11.7167, "longitude": 7.0667 },
      { "name": "Funtua", "postal_code": "830111", "latitude": 11.5333, "longitude": 7.3167 },
      { "name": "Ingawa", "postal_code": "830112", "latitude": 12.6333, "longitude": 8.0500 },
      { "name": "Jibia", "postal_code": "830113", "latitude": 13.0833, "longitude": 7.2333 },
      { "name": "Kafur", "postal_code": "830114", "latitude": 11.6667, "longitude": 7.7000 },
      { "name": "Kaita", "postal_code": "820104", "latitude": 13.0833, "longitude": 7.7500 },
      { "name": "Kankara", "postal_code": "830115", "latitude": 11.9333, "longitude": 7.4167 },
      { "name": "Kankia", "postal_code": "830116", "latitude": 12.5500, "longitude": 7.8333 },
      { "name": "Katsina", "postal_code": "820105", "latitude": 12.9889, "longitude": 7.6008 },
      { "name": "Kurfi", "postal_code": "830117", "latitude": 12.6667, "longitude": 7.4833 },
      { "name": "Kusada", "postal_code": "830118", "latitude": 12.4667, "longitude": 7.9667 },
      { "name": "Mai'Adua", "postal_code": "820106", "latitude": 13.1833, "longitude": 8.2333 },
      { "name": "Malumfashi", "postal_code": "830119", "latitude": 11.8000, "longitude": 7.6167 },
      { "name": "Mani", "postal_code": "830120", "latitude": 12.8500, "longitude": 7.8667 },
      { "name": "Mashi", "postal_code": "820107", "latitude": 13.0333, "longitude": 7.9500 },
      { "name": "Matazu", "postal_code": "830121", "latitude": 12.2333, "longitude": 7.6833 },
      { "name": "Musawa", "postal_code": "830122", "latitude": 12.1333, "longitude": 7.6667 },
      { "name": "Rimi", "postal_code": "820108", "latitude": 12.8500, "longitude": 7.7167 },
      { "name": "Sabuwa", "postal_code": "830123", "latitude": 11.1667, "longitude": 7.0667 },
      { "name": "Safana", "postal_code": "830124", "latitude": 12.4167, "longitude": 7.1167 },
      { "name": "Sandamu", "postal_code": "820109", "latitude": 12.9667, "longitude": 8.3667 },
      { "name": "Zango", "postal_code": "820110", "latitude": 13.0667, "longitude": 8.4833 }
    ]
  },
  {
    "state": "Kebbi",
    "code": "KE",
    "geopolitical_zone": "North West",
    "capital": "Birnin Kebbi",
    "lgas": [
      { "name": "Aleiro", "postal_code": "861101", "latitude": 12.2833, "longitude": 4.4833 },
      { "name": "Arewa Dandi", "postal_code": "861102", "latitude": 12.9167, "longitude": 4.4167 },
      { "name": "Argungu", "postal_code": "861103", "latitude": 12.7500, "longitude": 4.5333 },
      { "name": "Augie", "postal_code": "861104", "latitude": 12.8833, "longitude": 4.6000 },
      { "name": "Bagudo", "postal_code": "861105", "latitude": 11.4167, "longitude": 4.2333 },
      { "name": "Birnin Kebbi", "postal_code": "860101", "latitude": 12.4500, "longitude": 4.2000 },
      { "name": "Bunza", "postal_code": "861106", "latitude": 12.0833, "longitude": 4.0167 },
      { "name": "Dandi", "postal_code": "861107", "latitude": 12.6667, "longitude": 4.3333 },
      { "name": "Fakai", "postal_code": "861108", "latitude": 11.5833, "longitude": 4.9167 },
      { "name": "Gwandu", "postal_code": "860102", "latitude": 12.5000, "longitude": 4.6500 },
      { "name": "Jega", "postal_code": "861109", "latitude": 12.2167, "longitude": 4.3833 },
      { "name": "Kalgo", "postal_code": "860103", "latitude": 12.3333, "longitude": 4.2000 },
      { "name": "Koko/Besse", "postal_code": "861110", "latitude": 11.5833, "longitude": 4.4333 },
      { "name": "Maiyama", "postal_code": "861111", "latitude": 11.8333, "longitude": 4.3667 },
      { "name": "Ngaski", "postal_code": "861112", "latitude": 10.4167, "longitude": 4.8333 },
      { "name": "Sakaba", "postal_code": "861113", "latitude": 11.0667, "longitude": 5.6000 },
      { "name": "Shanga", "postal_code": "861114", "latitude": 11.2167, "longitude": 4.5833 },
      { "name": "Suru", "postal_code": "860104", "latitude": 12.4667, "longitude": 4.1833 },
      { "name": "Danko/Wasagu", "postal_code": "861115", "latitude": 11.3333, "longitude": 5.2000 },
      { "name": "Yauri", "postal_code": "861116", "latitude": 10.8333, "longitude": 4.7500 },
      { "name": "Zuru", "postal_code": "861117", "latitude": 11.4333, "longitude": 5.2333 }
    ]
  },
  {
    "state": "Kogi",
    "code": "KO",
    "geopolitical_zone": "North Central",
    "capital": "Lokoja",
    "lgas": [
      { "name": "Adavi", "postal_code": "264101", "latitude": 7.6667, "longitude": 6.2833 },
      { "name": "Ajaokuta", "postal_code": "264102", "latitude": 7.4667, "longitude": 6.6667 },
      { "name": "Ankpa", "postal_code": "273101", "latitude": 7.4000, "longitude": 7.6333 },
      { "name": "Bassa", "postal_code": "264103", "latitude": 7.8333, "longitude": 7.0833 },
      { "name": "Dekina", "postal_code": "273102", "latitude": 7.6833, "longitude": 7.0333 },
      { "name": "Ibaji", "postal_code": "273103", "latitude": 7.0833, "longitude": 6.8333 },
      { "name": "Idah", "postal_code": "273104", "latitude": 7.1000, "longitude": 6.7333 },
      { "name": "Igalamela Odolu", "postal_code": "273105", "latitude": 7.2000, "longitude": 6.8333 },
      { "name": "Ijumu", "postal_code": "261101", "latitude": 7.8333, "longitude": 5.9167 },
      { "name": "Kabba/Bunu", "postal_code": "261102", "latitude": 7.8333, "longitude": 6.0833 },
      { "name": "Kogi", "postal_code": "264104", "latitude": 7.8000, "longitude": 6.7333 },
      { "name": "Lokoja", "postal_code": "260101", "latitude": 7.8000, "longitude": 6.7333 },
      { "name": "Mopa Muro", "postal_code": "261103", "latitude": 8.0833, "longitude": 5.9000 },
      { "name": "Ofu", "postal_code": "273106", "latitude": 7.2500, "longitude": 7.0833 },
      { "name": "Ogori/Magongo", "postal_code": "261104", "latitude": 7.4833, "longitude": 6.2167 },
      { "name": "Okehi", "postal_code": "264105", "latitude": 7.5833, "longitude": 6.2333 },
      { "name": "Okene", "postal_code": "264106", "latitude": 7.5500, "longitude": 6.2333 },
      { "name": "Olamaboro", "postal_code": "273107", "latitude": 7.2333, "longitude": 7.6333 },
      { "name": "Omala", "postal_code": "273108", "latitude": 7.8333, "longitude": 7.6000 },
      { "name": "Yagba East", "postal_code": "261105", "latitude": 8.1167, "longitude": 5.6333 },
      { "name": "Yagba West", "postal_code": "261106", "latitude": 8.2333, "longitude": 5.5833 }
    ]
  },
  {
    "state": "Kwara",
    "code": "KW",
    "geopolitical_zone": "North Central",
    "capital": "Ilorin",
    "lgas": [
      { "name": "Asa", "postal_code": "240101", "latitude": 8.3833, "longitude": 4.5333 },
      { "name": "Baruten", "postal_code": "241101", "latitude": 9.0833, "longitude": 3.5000 },
      { "name": "Edu", "postal_code": "242101", "latitude": 8.8333, "longitude": 5.1667 },
      { "name": "Ekiti", "postal_code": "241102", "latitude": 8.5000, "longitude": 5.7500 },
      { "name": "Ifelodun", "postal_code": "241103", "latitude": 8.5000, "longitude": 4.8333 },
      { "name": "Ilorin East", "postal_code": "240102", "latitude": 8.5000, "longitude": 4.5500 },
      { "name": "Ilorin South", "postal_code": "240103", "latitude": 8.4333, "longitude": 4.5333 },
      { "name": "Ilorin West", "postal_code": "240104", "latitude": 8.5000, "longitude": 4.5667 },
      { "name": "Irepodun", "postal_code": "241104", "latitude": 8.3000, "longitude": 4.9667 },
      { "name": "Isin", "postal_code": "241105", "latitude": 8.3333, "longitude": 5.1667 },
      { "name": "Kaiama", "postal_code": "241106", "latitude": 9.6000, "longitude": 3.9500 },
      { "name": "Moro", "postal_code": "240105", "latitude": 8.7333, "longitude": 4.5333 },
      { "name": "Offa", "postal_code": "240106", "latitude": 8.1500, "longitude": 4.7167 },
      { "name": "Oke Ero", "postal_code": "241107", "latitude": 8.1667, "longitude": 5.1667 },
      { "name": "Oyun", "postal_code": "240107", "latitude": 8.2333, "longitude": 4.6167 },
      { "name": "Pategi", "postal_code": "242102", "latitude": 8.7333, "longitude": 5.7500 }
    ]
  },
  {
    "state": "Lagos",
    "code": "LA",
    "geopolitical_zone": "South West",
    "capital": "Ikeja",
    "lgas": [
      { "name": "Agege", "postal_code": "100101", "latitude": 6.6167, "longitude": 3.3333 },
      { "name": "Ajeromi-Ifelodun", "postal_code": "102102", "latitude": 6.4500, "longitude": 3.3667 },
      { "name": "Alimosho", "postal_code": "100102", "latitude": 6.6167, "longitude": 3.2833 },
      { "name": "Amuwo-Odofin", "postal_code": "102103", "latitude": 6.4667, "longitude": 3.2833 },
      { "name": "Apapa", "postal_code": "101101", "latitude": 6.4500, "longitude": 3.3667 },
      { "name": "Badagry", "postal_code": "103101", "latitude": 6.4167, "longitude": 2.8833 },
      { "name": "Epe", "postal_code": "106101", "latitude": 6.5833, "longitude": 3.9833 },
      { "name": "Eti Osa", "postal_code": "101102", "latitude": 6.4667, "longitude": 3.5667 },
      { "name": "Ibeju-Lekki", "postal_code": "105101", "latitude": 6.4667, "longitude": 3.7333 },
      { "name": "Ifako-Ijaiye", "postal_code": "100103", "latitude": 6.6500, "longitude": 3.3333 },
      { "name": "Ikeja", "postal_code": "100104", "latitude": 6.6000, "longitude": 3.3500 },
      { "name": "Ikorodu", "postal_code": "104101", "latitude": 6.6167, "longitude": 3.5167 },
      { "name": "Kosofe", "postal_code": "100105", "latitude": 6.6000, "longitude": 3.3833 },
      { "name": "Lagos Island", "postal_code": "101103", "latitude": 6.4500, "longitude": 3.4000 },
      { "name": "Lagos Mainland", "postal_code": "101104", "latitude": 6.4833, "longitude": 3.3833 },
      { "name": "Mushin", "postal_code": "100106", "latitude": 6.5333, "longitude": 3.3500 },
      { "name": "Ojo", "postal_code": "102104", "latitude": 6.4667, "longitude": 3.1667 },
      { "name": "Oshodi-Isolo", "postal_code": "100107", "latitude": 6.5500, "longitude": 3.3333 },
      { "name": "Shomolu", "postal_code": "101105", "latitude": 6.5333, "longitude": 3.4000 },
      { "name": "Surulere", "postal_code": "101106", "latitude": 6.5000, "longitude": 3.3500 }
    ]
  },
  {
    "state": "Nasarawa",
    "code": "NA",
    "geopolitical_zone": "North Central",
    "capital": "Lafia",
    "lgas": [
      { "name": "Akwanga", "postal_code": "950101", "latitude": 8.9167, "longitude": 8.4167 },
      { "name": "Awe", "postal_code": "950102", "latitude": 8.2500, "longitude": 9.1333 },
      { "name": "Doma", "postal_code": "950103", "latitude": 8.3833, "longitude": 8.3500 },
      { "name": "Karu", "postal_code": "950104", "latitude": 9.0167, "longitude": 7.6833 },
      { "name": "Keana", "postal_code": "950105", "latitude": 8.1500, "longitude": 8.8000 },
      { "name": "Keffi", "postal_code": "950106", "latitude": 8.8500, "longitude": 7.8667 },
      { "name": "Kokona", "postal_code": "950107", "latitude": 8.8833, "longitude": 8.4333 },
      { "name": "Lafia", "postal_code": "950108", "latitude": 8.5000, "longitude": 8.5167 },
      { "name": "Nasarawa", "postal_code": "950109", "latitude": 8.3333, "longitude": 7.7333 },
      { "name": "Nasarawa Egon", "postal_code": "950110", "latitude": 8.7167, "longitude": 8.3667 },
      { "name": "Obi", "postal_code": "950111", "latitude": 8.3333, "longitude": 8.7833 },
      { "name": "Toto", "postal_code": "950112", "latitude": 8.2500, "longitude": 7.0833 },
      { "name": "Wamba", "postal_code": "950113", "latitude": 8.9333, "longitude": 8.6000 }
    ]
  },
  {
    "state": "Niger",
    "code": "NI",
    "geopolitical_zone": "North Central",
    "capital": "Minna",
    "lgas": [
      { "name": "Agaie", "postal_code": "911101", "latitude": 9.0167, "longitude": 6.3167 },
      { "name": "Agwara", "postal_code": "913101", "latitude": 10.7000, "longitude": 4.5833 },
      { "name": "Bida", "postal_code": "912101", "latitude": 9.0833, "longitude": 6.0167 },
      { "name": "Borgu", "postal_code": "913102", "latitude": 10.5833, "longitude": 4.5000 },
      { "name": "Bosso", "postal_code": "920102", "latitude": 9.6167, "longitude": 6.5167 },
      { "name": "Chanchaga", "postal_code": "920103", "latitude": 9.6000, "longitude": 6.5500 },
      { "name": "Edati", "postal_code": "912102", "latitude": 9.1167, "longitude": 5.9500 },
      { "name": "Gbako", "postal_code": "912103", "latitude": 9.2500, "longitude": 6.2500 },
      { "name": "Gurara", "postal_code": "920104", "latitude": 9.3667, "longitude": 7.2667 },
      { "name": "Katcha", "postal_code": "912104", "latitude": 9.2500, "longitude": 6.5000 },
      { "name": "Kontagora", "postal_code": "911102", "latitude": 10.4000, "longitude": 5.4667 },
      { "name": "Lapai", "postal_code": "911103", "latitude": 9.0500, "longitude": 6.5667 },
      { "name": "Lavun", "postal_code": "912105", "latitude": 9.2167, "longitude": 5.6333 },
      { "name": "Magama", "postal_code": "913103", "latitude": 10.5000, "longitude": 5.4167 },
      { "name": "Mariga", "postal_code": "911104", "latitude": 10.6667, "longitude": 5.9167 },
      { "name": "Mashegu", "postal_code": "913104", "latitude": 9.9667, "longitude": 5.7833 },
      { "name": "Mokwa", "postal_code": "912106", "latitude": 9.3000, "longitude": 5.0667 },
      { "name": "Moya", "postal_code": "920105", "latitude": 9.4833, "longitude": 6.6667 },
      { "name": "Paikoro", "postal_code": "920106", "latitude": 9.4500, "longitude": 6.6333 },
      { "name": "Rafi", "postal_code": "911105", "latitude": 10.3500, "longitude": 6.3333 },
      { "name": "Rijau", "postal_code": "911106", "latitude": 11.0667, "longitude": 5.2500 },
      { "name": "Shiroro", "postal_code": "920107", "latitude": 9.9667, "longitude": 6.8500 },
      { "name": "Suleja", "postal_code": "920108", "latitude": 9.1833, "longitude": 7.1833 },
      { "name": "Tafa", "postal_code": "920109", "latitude": 9.3167, "longitude": 7.2500 },
      { "name": "Wushishi", "postal_code": "912107", "latitude": 9.7667, "longitude": 6.0833 }
    ]
  },
  {
    "state": "Ogun",
    "code": "OG",
    "geopolitical_zone": "South West",
    "capital": "Abeokuta",
    "lgas": [
      { "name": "Abeokuta North", "postal_code": "110101", "latitude": 7.1667, "longitude": 3.4167 },
      { "name": "Abeokuta South", "postal_code": "110102", "latitude": 7.1500, "longitude": 3.3500 },
      { "name": "Ado-Odo/Ota", "postal_code": "112101", "latitude": 6.6833, "longitude": 3.2333 },
      { "name": "Egbado North", "postal_code": "111101", "latitude": 7.5000, "longitude": 3.4167 },
      { "name": "Egbado South", "postal_code": "111102", "latitude": 6.8333, "longitude": 3.0000 },
      { "name": "Ewekoro", "postal_code": "110103", "latitude": 6.9333, "longitude": 3.2167 },
      { "name": "Ifo", "postal_code": "112102", "latitude": 6.8167, "longitude": 3.2000 },
      { "name": "Ijebu East", "postal_code": "121101", "latitude": 6.8167, "longitude": 4.0833 },
      { "name": "Ijebu North", "postal_code": "121102", "latitude": 6.9167, "longitude": 4.0667 },
      { "name": "Ijebu North East", "postal_code": "121103", "latitude": 6.9667, "longitude": 4.0333 },
      { "name": "Ijebu Ode", "postal_code": "120104", "latitude": 6.8167, "longitude": 3.9333 },
      { "name": "Ikenne", "postal_code": "121104", "latitude": 6.8667, "longitude": 3.7167 },
      { "name": "Imeko Afon", "postal_code": "111103", "latitude": 7.6833, "longitude": 2.9667 },
      { "name": "Ipokia", "postal_code": "111104", "latitude": 6.5333, "longitude": 2.8500 },
      { "name": "Obafemi Owode", "postal_code": "110104", "latitude": 6.9667, "longitude": 3.5000 },
      { "name": "Odeda", "postal_code": "110105", "latitude": 7.2333, "longitude": 3.5333 },
      { "name": "Odogbolu", "postal_code": "121105", "latitude": 6.8333, "longitude": 3.7667 },
      { "name": "Ogun Waterside", "postal_code": "121106", "latitude": 6.5000, "longitude": 4.2667 },
      { "name": "Remo North", "postal_code": "121107", "latitude": 6.9667, "longitude": 3.7167 },
      { "name": "Shagamu", "postal_code": "121108", "latitude": 6.8500, "longitude": 3.6500 }
    ]
  },
  {
    "state": "Ondo",
    "code": "ON",
    "geopolitical_zone": "South West",
    "capital": "Akure",
    "lgas": [
      { "name": "Akoko North-East", "postal_code": "341101", "latitude": 7.6667, "longitude": 5.8333 },
      { "name": "Akoko North-West", "postal_code": "341102", "latitude": 7.8333, "longitude": 5.7500 },
      { "name": "Akoko South-East", "postal_code": "341103", "latitude": 7.5833, "longitude": 5.7500 },
      { "name": "Akoko South-West", "postal_code": "341104", "latitude": 7.5000, "longitude": 5.8333 },
      { "name": "Akure North", "postal_code": "340105", "latitude": 7.2833, "longitude": 5.2167 },
      { "name": "Akure South", "postal_code": "340106", "latitude": 7.2500, "longitude": 5.2000 },
      { "name": "Ese Odo", "postal_code": "351101", "latitude": 6.3333, "longitude": 4.8667 },
      { "name": "Idanre", "postal_code": "340107", "latitude": 7.1000, "longitude": 5.1167 },
      { "name": "Ifedore", "postal_code": "340108", "latitude": 7.3000, "longitude": 5.0667 },
      { "name": "Ilaje", "postal_code": "351102", "latitude": 6.2500, "longitude": 4.8333 },
      { "name": "Irele", "postal_code": "351103", "latitude": 6.5000, "longitude": 4.7500 },
      { "name": "Odigbo", "postal_code": "351104", "latitude": 6.7000, "longitude": 4.8667 },
      { "name": "Okitipupa", "postal_code": "351105", "latitude": 6.5833, "longitude": 4.7167 },
      { "name": "Ondo East", "postal_code": "340110", "latitude": 7.1000, "longitude": 4.8333 },
      { "name": "Ondo West", "postal_code": "340111", "latitude": 7.0833, "longitude": 4.8333 },
      { "name": "Ose", "postal_code": "341105", "latitude": 7.2333, "longitude": 5.6333 },
      { "name": "Owo", "postal_code": "341106", "latitude": 7.2000, "longitude": 5.5833 }
    ]
  },
  {
    "state": "Osun",
    "code": "OS",
    "geopolitical_zone": "South West",
    "capital": "Osogbo",
    "lgas": [
      { "name": "Aiyedade", "postal_code": "231101", "latitude": 7.5833, "longitude": 4.4167 },
      { "name": "Aiyedire", "postal_code": "231102", "latitude": 7.8333, "longitude": 4.3333 },
      { "name": "Atakunmosa East", "postal_code": "233101", "latitude": 7.5833, "longitude": 4.8333 },
      { "name": "Atakunmosa West", "postal_code": "233102", "latitude": 7.5000, "longitude": 4.7500 },
      { "name": "Boluwaduro", "postal_code": "231103", "latitude": 7.9167, "longitude": 4.9167 },
      { "name": "Boripe", "postal_code": "231104", "latitude": 7.7500, "longitude": 4.6667 },
      { "name": "Ede North", "postal_code": "232101", "latitude": 7.7500, "longitude": 4.4333 },
      { "name": "Ede South", "postal_code": "232102", "latitude": 7.7167, "longitude": 4.4500 },
      { "name": "Egbedore", "postal_code": "232103", "latitude": 7.7833, "longitude": 4.4167 },
      { "name": "Ejigbo", "postal_code": "232104", "latitude": 7.9167, "longitude": 4.3167 },
      { "name": "Ife Central", "postal_code": "220105", "latitude": 7.4833, "longitude": 4.5667 },
      { "name": "Ife East", "postal_code": "220106", "latitude": 7.4833, "longitude": 4.5667 },
      { "name": "Ife North", "postal_code": "220107", "latitude": 7.6333, "longitude": 4.5333 },
      { "name": "Ife South", "postal_code": "220108", "latitude": 7.4167, "longitude": 4.5333 },
      { "name": "Ifedayo", "postal_code": "231105", "latitude": 7.8333, "longitude": 4.9167 },
      { "name": "Ifelodun", "postal_code": "231106", "latitude": 8.0667, "longitude": 4.6667 },
      { "name": "Ila", "postal_code": "231107", "latitude": 8.0167, "longitude": 4.9000 },
      { "name": "Ilesa East", "postal_code": "233103", "latitude": 7.6167, "longitude": 4.7333 },
      { "name": "Ilesa West", "postal_code": "233104", "latitude": 7.6167, "longitude": 4.7333 },
      { "name": "Irepodun", "postal_code": "232105", "latitude": 7.8333, "longitude": 4.4667 },
      { "name": "Irewole", "postal_code": "232106", "latitude": 7.3667, "longitude": 4.1833 },
      { "name": "Isokan", "postal_code": "232107", "latitude": 7.8333, "longitude": 4.3333 },
      { "name": "Iwo", "postal_code": "232108", "latitude": 7.6333, "longitude": 4.1833 },
      { "name": "Obokun", "postal_code": "233105", "latitude": 7.7833, "longitude": 4.7000 },
      { "name": "Odo Otin", "postal_code": "231108", "latitude": 7.9167, "longitude": 4.8333 },
      { "name": "Ola Oluwa", "postal_code": "232109", "latitude": 7.8333, "longitude": 4.1667 },
      { "name": "Olorunda", "postal_code": "230110", "latitude": 7.8500, "longitude": 4.5333 },
      { "name": "Oriade", "postal_code": "233106", "latitude": 7.6167, "longitude": 4.9167 },
      { "name": "Orolu", "postal_code": "232110", "latitude": 7.8333, "longitude": 4.4833 },
      { "name": "Osogbo", "postal_code": "230111", "latitude": 7.7667, "longitude": 4.5667 }
    ]
  },
  {
    "state": "Oyo",
    "code": "OY",
    "geopolitical_zone": "South West",
    "capital": "Ibadan",
    "lgas": [
      { "name": "Afijio", "postal_code": "200101", "latitude": 7.7833, "longitude": 3.9333 },
      { "name": "Akinyele", "postal_code": "200102", "latitude": 7.8167, "longitude": 3.9167 },
      { "name": "Atiba", "postal_code": "200103", "latitude": 7.8500, "longitude": 3.9333 },
      { "name": "Atisbo", "postal_code": "212101", "latitude": 8.2000, "longitude": 3.7000 },
      { "name": "Egbeda", "postal_code": "200104", "latitude": 7.3667, "longitude": 4.0333 },
      { "name": "Ibadan North", "postal_code": "200105", "latitude": 7.3833, "longitude": 3.9000 },
      { "name": "Ibadan North-East", "postal_code": "200106", "latitude": 7.4000, "longitude": 3.9167 },
      { "name": "Ibadan North-West", "postal_code": "200107", "latitude": 7.3833, "longitude": 3.8833 },
      { "name": "Ibadan South-East", "postal_code": "200108", "latitude": 7.3667, "longitude": 3.9167 },
      { "name": "Ibadan South-West", "postal_code": "200109", "latitude": 7.3667, "longitude": 3.8833 },
      { "name": "Ibarapa Central", "postal_code": "211101", "latitude": 7.5167, "longitude": 3.3000 },
      { "name": "Ibarapa East", "postal_code": "211102", "latitude": 7.4833, "longitude": 3.4500 },
      { "name": "Ibarapa North", "postal_code": "211103", "latitude": 7.5500, "longitude": 3.2667 },
      { "name": "Ido", "postal_code": "200110", "latitude": 7.5667, "longitude": 3.7667 },
      { "name": "Irepo", "postal_code": "212102", "latitude": 8.3667, "longitude": 4.1667 },
      { "name": "Iseyin", "postal_code": "212103", "latitude": 7.9667, "longitude": 3.6000 },
      { "name": "Itesiwaju", "postal_code": "212104", "latitude": 8.2167, "longitude": 3.5000 },
      { "name": "Iwajowa", "postal_code": "212105", "latitude": 8.0000, "longitude": 3.8667 },
      { "name": "Kajola", "postal_code": "212106", "latitude": 8.0833, "longitude": 3.8667 },
      { "name": "Lagelu", "postal_code": "200111", "latitude": 7.4833, "longitude": 4.0333 },
      { "name": "Ogbomosho North", "postal_code": "210107", "latitude": 8.1333, "longitude": 4.2500 },
      { "name": "Ogbomosho South", "postal_code": "210108", "latitude": 8.1167, "longitude": 4.2667 },
      { "name": "Ogo Oluwa", "postal_code": "210109", "latitude": 8.0333, "longitude": 4.2667 },
      { "name": "Olorunsogo", "postal_code": "212107", "latitude": 8.2333, "longitude": 4.0500 },
      { "name": "Oluyole", "postal_code": "200112", "latitude": 7.2333, "longitude": 3.8667 },
      { "name": "Ona Ara", "postal_code": "200113", "latitude": 7.4167, "longitude": 4.0333 },
      { "name": "Orelope", "postal_code": "212108", "latitude": 8.5000, "longitude": 4.2000 },
      { "name": "Ori Ire", "postal_code": "210110", "latitude": 8.2333, "longitude": 4.1000 },
      { "name": "Oyo East", "postal_code": "210111", "latitude": 7.8500, "longitude": 3.9333 },
      { "name": "Oyo West", "postal_code": "210112", "latitude": 7.8333, "longitude": 3.9333 },
      { "name": "Saki East", "postal_code": "212109", "latitude": 8.6667, "longitude": 3.3833 },
      { "name": "Saki West", "postal_code": "212110", "latitude": 8.6667, "longitude": 3.3833 },
      { "name": "Surulere", "postal_code": "211104", "latitude": 8.4167, "longitude": 4.1833 }
    ]
  },
  {
    "state": "Plateau",
    "code": "PL",
    "geopolitical_zone": "North Central",
    "capital": "Jos",
    "lgas": [
      { "name": "Barkin Ladi", "postal_code": "930101", "latitude": 9.5333, "longitude": 8.9000 },
      { "name": "Bassa", "postal_code": "930102", "latitude": 9.8833, "longitude": 8.7333 },
      { "name": "Bokkos", "postal_code": "930103", "latitude": 9.3000, "longitude": 8.9833 },
      { "name": "Jos East", "postal_code": "930104", "latitude": 9.9167, "longitude": 9.0833 },
      { "name": "Jos North", "postal_code": "930105", "latitude": 9.9333, "longitude": 8.8833 },
      { "name": "Jos South", "postal_code": "930106", "latitude": 9.9000, "longitude": 8.9000 },
      { "name": "Kanam", "postal_code": "940101", "latitude": 9.4167, "longitude": 9.8333 },
      { "name": "Kanke", "postal_code": "940102", "latitude": 9.4667, "longitude": 9.5833 },
      { "name": "Langtang North", "postal_code": "940103", "latitude": 9.1333, "longitude": 9.8000 },
      { "name": "Langtang South", "postal_code": "940104", "latitude": 9.0667, "longitude": 9.7833 },
      { "name": "Mangu", "postal_code": "930107", "latitude": 9.5167, "longitude": 9.1000 },
      { "name": "Mikang", "postal_code": "940105", "latitude": 9.0833, "longitude": 9.4667 },
      { "name": "Pankshin", "postal_code": "940106", "latitude": 9.3333, "longitude": 9.4333 },
      { "name": "Qua'an Pan", "postal_code": "940107", "latitude": 8.9667, "longitude": 9.6333 },
      { "name": "Riyom", "postal_code": "930108", "latitude": 9.6333, "longitude": 8.7667 },
      { "name": "Shendam", "postal_code": "940108", "latitude": 8.8833, "longitude": 9.5333 },
      { "name": "Wase", "postal_code": "940109", "latitude": 9.1000, "longitude": 9.9500 }
    ]
  },
  {
    "state": "Rivers",
    "code": "RI",
    "geopolitical_zone": "South South",
    "capital": "Port Harcourt",
    "lgas": [
      { "name": "Abua/Odual", "postal_code": "510101", "latitude": 4.8667, "longitude": 6.5333 },
      { "name": "Ahoada East", "postal_code": "510102", "latitude": 5.0833, "longitude": 6.6500 },
      { "name": "Ahoada West", "postal_code": "510103", "latitude": 5.0167, "longitude": 6.5833 },
      { "name": "Akuku-Toru", "postal_code": "511101", "latitude": 4.5833, "longitude": 6.8667 },
      { "name": "Andoni", "postal_code": "510104", "latitude": 4.5667, "longitude": 7.3333 },
      { "name": "Asari-Toru", "postal_code": "511102", "latitude": 4.7667, "longitude": 6.8333 },
      { "name": "Bonny", "postal_code": "511103", "latitude": 4.4500, "longitude": 7.1667 },
      { "name": "Degema", "postal_code": "511104", "latitude": 4.7500, "longitude": 6.7667 },
      { "name": "Eleme", "postal_code": "501105", "latitude": 4.7000, "longitude": 7.0333 },
      { "name": "Emuoha", "postal_code": "500106", "latitude": 4.8833, "longitude": 6.8667 },
      { "name": "Etche", "postal_code": "500107", "latitude": 5.0833, "longitude": 7.0833 },
      { "name": "Gokana", "postal_code": "501108", "latitude": 4.7333, "longitude": 7.3667 },
      { "name": "Ikwerre", "postal_code": "500109", "latitude": 5.0333, "longitude": 6.9167 },
      { "name": "Khana", "postal_code": "501110", "latitude": 4.7333, "longitude": 7.4333 },
      { "name": "Obio/Akpor", "postal_code": "500111", "latitude": 4.9167, "longitude": 6.9167 },
      { "name": "Ogba/Egbema/Ndoni", "postal_code": "510105", "latitude": 5.3333, "longitude": 6.6500 },
      { "name": "Ogu/Bolo", "postal_code": "511106", "latitude": 4.7333, "longitude": 7.2167 },
      { "name": "Okrika", "postal_code": "501112", "latitude": 4.7333, "longitude": 7.0833 },
      { "name": "Omuma", "postal_code": "500113", "latitude": 5.1667, "longitude": 7.2333 },
      { "name": "Opobo/Nkoro", "postal_code": "511107", "latitude": 4.5167, "longitude": 7.5500 },
      { "name": "Oyigbo", "postal_code": "500114", "latitude": 4.8833, "longitude": 7.2500 },
      { "name": "Port Harcourt", "postal_code": "500115", "latitude": 4.7500, "longitude": 7.0000 },
      { "name": "Tai", "postal_code": "501116", "latitude": 4.7167, "longitude": 7.3000 }
    ]
  },
  {
    "state": "Sokoto",
    "code": "SO",
    "geopolitical_zone": "North West",
    "capital": "Sokoto",
    "lgas": [
      { "name": "Binji", "postal_code": "851101", "latitude": 13.2167, "longitude": 4.9167 },
      { "name": "Bodinga", "postal_code": "851102", "latitude": 12.8333, "longitude": 5.1500 },
      { "name": "Dange Shuni", "postal_code": "851103", "latitude": 12.8667, "longitude": 5.3333 },
      { "name": "Gada", "postal_code": "851104", "latitude": 13.7667, "longitude": 5.6667 },
      { "name": "Goronyo", "postal_code": "851105", "latitude": 13.4500, "longitude": 5.6667 },
      { "name": "Gudu", "postal_code": "851106", "latitude": 13.4667, "longitude": 4.5333 },
      { "name": "Gwadabawa", "postal_code": "851107", "latitude": 13.3500, "longitude": 5.2500 },
      { "name": "Illela", "postal_code": "851108", "latitude": 13.7167, "longitude": 5.3000 },
      { "name": "Isa", "postal_code": "851109", "latitude": 13.2000, "longitude": 6.4000 },
      { "name": "Kebbe", "postal_code": "851110", "latitude": 11.8500, "longitude": 4.7500 },
      { "name": "Kware", "postal_code": "851111", "latitude": 13.2167, "longitude": 5.2667 },
      { "name": "Rabah", "postal_code": "851112", "latitude": 13.1167, "longitude": 5.5167 },
      { "name": "Sabon Birni", "postal_code": "851113", "latitude": 13.5667, "longitude": 6.3333 },
      { "name": "Shagari", "postal_code": "851114", "latitude": 12.6333, "longitude": 5.1667 },
      { "name": "Silame", "postal_code": "851115", "latitude": 13.0333, "longitude": 4.8333 },
      { "name": "Sokoto North", "postal_code": "840101", "latitude": 13.0667, "longitude": 5.2333 },
      { "name": "Sokoto South", "postal_code": "840102", "latitude": 13.0500, "longitude": 5.2333 },
      { "name": "Tambuwal", "postal_code": "851116", "latitude": 12.4000, "longitude": 4.6500 },
      { "name": "Tangaza", "postal_code": "851117", "latitude": 13.4167, "longitude": 5.4167 },
      { "name": "Tureta", "postal_code": "851118", "latitude": 12.5833, "longitude": 5.4667 },
      { "name": "Wamako", "postal_code": "851119", "latitude": 13.0333, "longitude": 5.1167 },
      { "name": "Wurno", "postal_code": "851120", "latitude": 13.3000, "longitude": 5.4333 },
      { "name": "Yabo", "postal_code": "851121", "latitude": 12.7167, "longitude": 5.0167 }
    ]
  },
  {
    "state": "Taraba",
    "code": "TA",
    "geopolitical_zone": "North East",
    "capital": "Jalingo",
    "lgas": [
      { "name": "Ardo Kola", "postal_code": "660101", "latitude": 8.8333, "longitude": 11.3667 },
      { "name": "Bali", "postal_code": "660102", "latitude": 7.8500, "longitude": 10.9667 },
      { "name": "Donga", "postal_code": "660103", "latitude": 7.7167, "longitude": 10.0500 },
      { "name": "Gashaka", "postal_code": "660104", "latitude": 7.3667, "longitude": 11.3667 },
      { "name": "Gassol", "postal_code": "660105", "latitude": 8.5333, "longitude": 10.4500 },
      { "name": "Ibi", "postal_code": "660106", "latitude": 8.1833, "longitude": 9.7500 },
      { "name": "Jalingo", "postal_code": "660107", "latitude": 8.9000, "longitude": 11.3667 },
      { "name": "Karim Lamido", "postal_code": "660108", "latitude": 9.3167, "longitude": 11.2000 },
      { "name": "Kurmi", "postal_code": "660109", "latitude": 7.0167, "longitude": 10.8333 },
      { "name": "Lau", "postal_code": "660110", "latitude": 9.2167, "longitude": 11.4167 },
      { "name": "Sardauna", "postal_code": "660111", "latitude": 7.2500, "longitude": 11.1667 },
      { "name": "Takum", "postal_code": "660112", "latitude": 7.2667, "longitude": 9.9833 },
      { "name": "Ussa", "postal_code": "660113", "latitude": 7.0667, "longitude": 10.0000 },
      { "name": "Wukari", "postal_code": "660114", "latitude": 7.8500, "longitude": 9.7833 },
      { "name": "Yorro", "postal_code": "660115", "latitude": 8.9167, "longitude": 11.3667 },
      { "name": "Zing", "postal_code": "660116", "latitude": 8.9833, "longitude": 11.7500 }
    ]
  },
  {
    "state": "Yobe",
    "code": "YO",
    "geopolitical_zone": "North East",
    "capital": "Damaturu",
    "lgas": [
      { "name": "Bade", "postal_code": "630101", "latitude": 12.8667, "longitude": 10.8500 },
      { "name": "Bursari", "postal_code": "630102", "latitude": 12.7333, "longitude": 10.9333 },
      { "name": "Damaturu", "postal_code": "620101", "latitude": 11.7500, "longitude": 11.9667 },
      { "name": "Fika", "postal_code": "630103", "latitude": 11.2833, "longitude": 11.3167 },
      { "name": "Fune", "postal_code": "630104", "latitude": 11.5333, "longitude": 11.5333 },
      { "name": "Geidam", "postal_code": "630105", "latitude": 12.9000, "longitude": 11.9333 },
      { "name": "Gujba", "postal_code": "630106", "latitude": 11.5000, "longitude": 11.9333 },
      { "name": "Gulani", "postal_code": "630107", "latitude": 10.8333, "longitude": 11.7333 },
      { "name": "Jakusko", "postal_code": "630108", "latitude": 12.3667, "longitude": 10.7667 },
      { "name": "Karasuwa", "postal_code": "630109", "latitude": 13.4167, "longitude": 10.9167 },
      { "name": "Machina", "postal_code": "630110", "latitude": 13.1333, "longitude": 10.0500 },
      { "name": "Nangere", "postal_code": "630111", "latitude": 11.8667, "longitude": 11.0667 },
      { "name": "Nguru", "postal_code": "630112", "latitude": 12.8833, "longitude": 10.4500 },
      { "name": "Potiskum", "postal_code": "630113", "latitude": 11.7167, "longitude": 11.0833 },
      { "name": "Tarmuwa", "postal_code": "630114", "latitude": 12.4000, "longitude": 11.8833 },
      { "name": "Yunusari", "postal_code": "630115", "latitude": 13.0667, "longitude": 11.7333 },
      { "name": "Yusufari", "postal_code": "630116", "latitude": 13.0667, "longitude": 11.1667 }
    ]
  },
  {
    "state": "Zamfara",
    "code": "ZA",
    "geopolitical_zone": "North West",
    "capital": "Gusau",
    "lgas": [
      { "name": "Anka", "postal_code": "891101", "latitude": 12.1167, "longitude": 5.9333 },
      { "name": "Bakura", "postal_code": "891102", "latitude": 12.7167, "longitude": 5.8667 },
      { "name": "Birnin Magaji/Kiyaw", "postal_code": "891103", "latitude": 12.5833, "longitude": 6.9000 },
      { "name": "Bukkuyum", "postal_code": "891104", "latitude": 12.1333, "longitude": 5.6333 },
      { "name": "Bungudu", "postal_code": "891105", "latitude": 12.2667, "longitude": 6.5500 },
      { "name": "Chafe", "postal_code": "891106", "latitude": 11.9333, "longitude": 6.9167 },
      { "name": "Gummi", "postal_code": "891107", "latitude": 12.1500, "longitude": 5.1167 },
      { "name": "Gusau", "postal_code": "890101", "latitude": 12.1667, "longitude": 6.6667 },
      { "name": "Kaura Namoda", "postal_code": "891108", "latitude": 12.6000, "longitude": 6.5833 },
      { "name": "Maradun", "postal_code": "891109", "latitude": 12.5667, "longitude": 6.2333 },
      { "name": "Maru", "postal_code": "891110", "latitude": 12.3333, "longitude": 6.4167 },
      { "name": "Shinkafi", "postal_code": "891111", "latitude": 13.0667, "longitude": 6.5167 },
      { "name": "Talata Mafara", "postal_code": "891112", "latitude": 12.5667, "longitude": 6.0667 },
      { "name": "Zurmi", "postal_code": "891113", "latitude": 13.0333, "longitude": 6.7833 }
    ]
  }
]